City_ID,City,Lat,Lng,Max Temp,Humidity,Cloudiness,Wind Speed,Country,Date
0,usogorsk,63.4106,48.6872,2.67,100,100,3.75,RU,1682351342
1,portland,45.5234,-122.6762,10.6,88,75,3.13,US,1682351215
2,novohrad-volynskyi,50.5941,27.6165,14.27,58,67,4.17,UA,1682351343
3,adamstown,-25.066,-130.1015,24.73,88,98,5.71,PN,1682351343
4,ushuaia,-54.8,-68.3,6.81,76,75,1.54,AR,1682351225
5,la passe,45.5549,-0.8967,16.13,71,98,4.27,FR,1682351343
6,nemuro,43.3236,145.575,2.65,90,17,5.93,JP,1682351344
7,magadan,59.5667,150.8,0.85,77,100,4.47,RU,1682351344
8,mahina,-17.5065,-149.489,24.87,88,75,1.54,PF,1682351344
9,port-aux-francais,-49.35,70.2167,4.0,62,30,8.8,TF,1682351345
10,invercargill,-46.4,168.35,11.68,82,97,0.89,NZ,1682351345
11,ribeira grande,38.5167,-28.7,18.76,88,20,5.36,PT,1682351345
12,west island,-12.1568,96.8225,27.99,74,75,9.26,CC,1682351345
13,gizo,-8.103,156.8419,28.05,75,99,2.62,SB,1682351345
14,aasiaat,68.7098,-52.8699,0.29,94,100,2.36,GL,1682351346
15,lata,40.1629,-8.3327,23.29,49,75,4.87,PT,1682351346
16,waitangi,-43.9535,-176.5597,11.38,58,91,13.58,NZ,1682351346
17,kargasok,59.0556,80.8572,-2.34,73,100,8.83,RU,1682351346
18,las tablas,7.7667,-80.2833,31.76,99,65,3.48,PA,1682351347
19,lagoa da canoa,-9.8297,-36.7378,30.7,42,99,6.18,BR,1682351347
20,grytviken,-54.2811,-36.5092,2.12,80,18,7.64,GS,1682351347
21,blackmans bay,-43.0167,147.3167,11.4,90,33,2.36,AU,1682351348
22,egilsstadir,65.2653,-14.3948,0.95,55,75,5.14,IS,1682351348
23,aylmer,42.7668,-80.983,6.7,57,52,4.93,CA,1682351348
24,mukalla,14.5425,49.1242,27.96,73,25,2.05,YE,1682351349
25,badger,64.8,-147.5333,-11.86,58,20,5.14,US,1682351349
26,utrik,11.2278,169.8474,26.75,83,100,9.35,MH,1682351349
27,iqaluit,63.7506,-68.5145,0.85,93,100,5.14,CA,1682351350
28,nowshahr,36.649,51.496,16.97,94,100,2.06,IR,1682351350
29,jamestown,42.097,-79.2353,6.77,93,100,2.57,US,1682351350
30,brasileia,-11.0161,-68.7481,29.25,74,75,3.09,BR,1682351350
31,petropavlovsk-kamchatsky,53.0452,158.6483,-0.67,69,75,2.0,RU,1682351351
32,santa cruz,-17.8,-63.1667,28.03,61,40,4.12,BO,1682351254
33,tolanaro,-25.0319,46.9987,25.04,78,40,5.66,MG,1682351352
34,papatowai,-46.5619,169.4708,10.9,70,95,8.78,NZ,1682351353
35,hermanus,-34.4187,19.2345,19.33,82,0,6.86,ZA,1682351353
36,karratha,-20.7377,116.8463,26.24,70,35,2.84,AU,1682351353
37,alice springs,-23.7,133.8833,13.75,77,20,3.33,AU,1682351354
38,fort bragg,35.139,-79.006,15.67,47,100,4.12,US,1682351069
39,kristiansund,63.1115,7.732,4.36,52,75,7.2,NO,1682351354
40,albany,42.6001,-73.9662,10.02,64,88,0.45,US,1682351306
41,taoudenni,22.6783,-3.9836,38.0,8,0,5.71,ML,1682351355
42,mount gambier,-37.8333,140.7667,13.57,70,2,2.55,AU,1682351355
43,selfoss,63.9331,-20.9971,8.91,43,100,3.43,IS,1682351355
44,kununurra,-15.7667,128.7333,20.99,94,6,0.0,AU,1682351356
45,west richland,46.3043,-119.3614,11.95,64,100,5.66,US,1682351353
46,port shepstone,-30.7414,30.455,23.31,81,89,5.21,ZA,1682351095
47,port mathurin,-19.6833,63.4167,26.2,83,99,7.96,MU,1682351356
48,antonio enes,-16.2325,39.9086,24.86,74,3,4.17,MZ,1682351357
49,codrington,-38.2667,141.9667,14.37,67,0,3.27,AU,1682351357
50,arawa,-6.2132,155.5367,25.05,92,100,1.23,PG,1682351357
51,pisco,-13.7,-76.2167,25.03,69,75,4.63,PE,1682351357
52,edinburgh of the seven seas,-37.0676,-12.3116,15.4,64,72,7.97,SH,1682351358
53,shimoda,34.6667,138.95,10.06,74,100,4.86,JP,1682351358
54,old town,50.087,14.4202,15.82,51,0,7.2,CZ,1682351358
55,carnarvon,-24.8667,113.6333,20.26,66,68,8.37,AU,1682351358
56,tiksi,71.6872,128.8694,-4.46,96,100,4.21,RU,1682351358
57,tyukhtet,56.5389,89.3011,6.11,84,100,4.39,RU,1682351359
58,kavaratti,10.5669,72.642,28.68,70,62,4.95,IN,1682351359
59,al abyar,32.19,20.5965,21.69,44,0,7.19,LY,1682351359
60,yellowknife,62.456,-114.3525,1.29,69,40,4.12,CA,1682351359
61,thompson,55.7435,-97.8558,-0.91,59,20,1.54,CA,1682351359
62,san jose del guaviare,2.5729,-72.6459,29.86,58,93,1.54,CO,1682351360
63,sandnessjoen,66.0217,12.6316,4.12,48,40,1.03,NO,1682351360
64,nova vicosa,-17.8919,-39.3719,27.09,64,75,6.12,BR,1682351073
65,olonkinbyen,70.9221,-8.7187,-4.37,83,99,8.06,SJ,1682351360
66,labytnangi,66.6572,66.4183,-5.48,81,22,6.98,RU,1682351360
67,tonning,54.3167,8.95,9.11,97,100,5.47,DE,1682351361
68,zemio,5.0314,25.1361,30.58,41,94,1.52,CF,1682351361
69,crane,31.3974,-102.3501,12.59,72,99,6.21,US,1682351362
70,bilibino,68.0546,166.4372,-16.23,81,3,2.55,RU,1682351362
71,qamdo,31.1667,97.2333,0.56,35,94,0.32,CN,1682351362
72,nazareno,25.3833,-103.4167,20.84,45,2,1.07,MX,1682351363
73,shache,38.4167,77.2406,18.81,15,8,1.72,CN,1682351363
74,klyuchi,52.2667,79.1667,10.75,65,68,8.69,RU,1682351363
75,avarua,-21.2078,-159.775,23.03,83,26,3.6,CK,1682351363
76,dalgopol,43.05,27.35,12.84,74,97,3.22,BG,1682351364
77,lihue,21.9789,-159.3672,20.58,94,0,1.54,US,1682351364
78,alofi,-19.0595,-169.9187,22.94,88,75,2.06,NU,1682351364
79,anadyr,64.75,177.4833,-6.72,68,33,10.0,RU,1682351365
80,margaret river,-33.95,115.0667,12.6,77,95,7.06,AU,1682351365
81,port elizabeth,-33.918,25.5701,21.17,91,20,8.75,ZA,1682351365
82,chernyshevskiy,63.0128,112.4714,-15.37,98,29,1.29,RU,1682351365
83,faranah,10.0404,-10.7434,39.73,17,10,1.46,GN,1682351366
84,fada,9.5667,8.3,30.48,36,100,1.7,NG,1682351366
85,antsiranana,-12.2787,49.2917,27.42,83,75,0.0,MG,1682351366
86,afaahiti,-17.75,-149.2833,23.93,84,84,4.73,PF,1682351366
87,atafu village,-8.5421,-172.5159,28.36,76,10,3.6,TK,1682351366
88,naze,28.3667,129.4833,19.51,82,100,8.19,JP,1682351367
89,ashmyany,54.425,25.9378,20.0,55,71,4.79,BY,1682351367
90,pelabuhanratu,-6.9875,106.5514,26.29,87,92,2.15,ID,1682351367
91,flying fish cove,-10.4217,105.6791,27.25,79,45,6.82,CX,1682351367
92,andergrove,-21.0833,149.1833,23.14,70,90,10.64,AU,1682351368
93,springs,-26.25,28.4,23.79,40,97,3.56,ZA,1682351368
94,vilyuysk,63.7553,121.6247,-4.19,94,100,3.7,RU,1682351368
95,calca,-13.3333,-71.95,14.64,66,81,0.35,PE,1682351369
96,mazamari,-11.3258,-74.5308,26.58,77,66,0.94,PE,1682351369
97,zagora,30.3484,-5.8365,33.29,11,1,4.42,MA,1682351370
98,santa maria,-29.6842,-53.8069,24.61,61,0,3.09,BR,1682351370
99,coquimbo,-29.9533,-71.3436,16.85,77,75,6.69,CL,1682351295
100,nuuk,64.1835,-51.7216,2.34,93,20,6.17,GL,1682351370
101,okha,53.5739,142.9478,-1.97,83,27,5.95,RU,1682351370
102,caleta de carquin,-11.0925,-77.6267,25.92,70,83,5.78,PE,1682351371
103,nagqu,31.5,92.0,-0.75,23,52,5.34,CN,1682351371
104,kutulik,53.3508,102.7839,3.16,52,64,5.19,RU,1682351371
105,siwa oasis,29.2041,25.5195,30.82,16,37,2.53,EG,1682351371
106,gulf shores,30.246,-87.7008,19.47,58,20,6.17,US,1682351160
107,whitehorse,60.7161,-135.0538,1.43,93,100,0.0,CA,1682351113
108,puerto ayora,-0.7393,-90.3518,27.98,87,58,1.79,EC,1682351372
109,puerto natales,-51.7236,-72.4875,6.25,100,75,1.54,CL,1682351227
110,isafjordur,66.0755,-23.124,4.02,48,0,3.6,IS,1682351372
111,chonchi,-42.6128,-73.8092,9.56,60,6,1.81,CL,1682351373
112,hithadhoo,-0.6,73.0833,29.34,71,86,2.21,MV,1682351373
113,saipan,15.1355,145.701,27.39,100,75,6.17,MP,1682351373
114,tabou,4.423,-7.3528,29.31,71,100,4.02,CI,1682351373
115,sungai penuh,-2.0833,101.3833,19.35,98,100,1.52,ID,1682351373
116,ciudad lazaro cardenas,17.9583,-102.2,27.53,63,100,1.41,MX,1682351374
117,plouzane,48.3833,-4.6167,13.18,66,75,7.72,FR,1682351374
118,vila franca do campo,37.7167,-25.4333,18.23,86,89,4.3,PT,1682351140
119,fortuna,40.5982,-124.1573,11.63,84,93,0.45,US,1682351375
120,bati,11.1833,40.0167,23.15,57,36,2.58,ET,1682351375
121,kotma,23.2,81.9667,25.1,43,67,2.33,IN,1682351375
122,kodiak,57.79,-152.4072,-0.27,55,0,6.17,US,1682351376
123,axim,4.8699,-2.2405,29.18,71,100,2.9,GH,1682351376
124,chernomorskoye,45.5039,32.6997,12.05,74,59,3.25,UA,1682351377
125,manta,-0.95,-80.7333,27.88,78,40,2.06,EC,1682351377
126,rio grande,-32.035,-52.0986,26.06,68,3,5.03,BR,1682351377
127,bethel,41.3712,-73.414,13.68,57,75,1.54,US,1682351377
128,stanley,54.868,-1.6985,7.38,57,75,6.17,GB,1682351187
129,mount isa,-20.7333,139.5,22.87,43,0,3.6,AU,1682351378
130,mirnyy,62.5353,113.9611,-14.42,98,21,0.53,RU,1682351378
131,constantia,44.1833,28.65,14.38,75,8,6.39,RO,1682351378
132,wailua homesteads,22.0669,-159.378,20.24,94,0,1.54,US,1682351378
133,malvan,16.0667,73.4667,27.3,71,5,4.93,IN,1682351378
134,ghanzi,-21.5667,21.7833,26.39,26,87,7.02,BW,1682351378
135,punta arenas,-53.15,-70.9167,6.06,93,100,3.6,CL,1682351378
136,imeni morozova,59.9757,31.0376,12.02,64,83,1.94,RU,1682351378
137,vorgashor,67.5833,63.95,-7.07,94,93,5.51,RU,1682351378
138,ola,59.5833,151.2833,1.19,81,100,4.6,RU,1682351379
139,flin flon,54.7682,-101.865,-0.09,59,40,3.09,CA,1682351379
140,sitka,57.0531,-135.33,5.94,75,100,4.12,US,1682351379
141,cabo san lucas,22.8909,-109.9124,29.23,54,0,3.09,MX,1682351097
142,bathsheba,13.2167,-59.5167,29.34,79,20,2.57,BB,1682351379
143,ilulissat,69.2167,-51.1,1.01,93,75,3.09,GL,1682351379
144,qaqortoq,60.7167,-46.0333,2.15,84,51,2.36,GL,1682351379
145,montrose,38.4166,-108.2673,4.74,59,84,1.35,US,1682351344
146,buka,40.8108,69.1986,20.02,47,9,3.56,UZ,1682351379
147,karwar,14.8,74.1333,25.57,80,27,4.55,IN,1682351380
148,port augusta,-32.5,137.7667,18.96,45,49,1.81,AU,1682351380
149,hauterive,46.0901,3.4459,16.42,58,100,4.11,FR,1682351380
150,lichuan,30.3,108.85,5.86,95,100,0.38,CN,1682351380
151,enewetak,11.3474,162.3373,26.32,86,100,8.6,MH,1682351381
152,konarka,19.9,86.1167,28.22,76,51,4.25,IN,1682351381
153,kapuskasing,49.4169,-82.4331,-0.95,80,100,4.63,CA,1682351381
154,gujba,11.5032,11.9367,36.15,26,100,3.0,NG,1682351381
155,palikir - national government center,6.9248,158.1611,27.47,77,92,6.56,FM,1682351381
156,kayangel,8.0823,134.7173,28.16,70,48,1.98,PW,1682351381
157,hawaiian paradise park,19.5933,-154.9731,21.13,95,75,0.0,US,1682351381
158,korla,41.7597,86.1469,15.39,36,4,1.06,CN,1682351382
159,elista,46.3078,44.2558,15.32,67,66,6.0,RU,1682351382
160,lazaro cardenas,17.9583,-102.2,27.53,63,100,1.41,MX,1682351382
161,haiku-pauwela,20.9219,-156.3051,20.58,79,60,1.4,US,1682351382
162,ad dawadimi,24.5077,44.3924,21.64,37,85,6.42,SA,1682351382
163,port lincoln,-34.7333,135.8667,18.89,75,99,3.76,AU,1682351382
164,blagodatnoye,45.3997,42.5867,15.51,69,100,2.52,RU,1682351382
165,puerto armuelles,8.2833,-82.8667,29.99,64,91,3.0,PA,1682351382
166,woods creek,47.8787,-121.8985,8.45,82,99,0.89,US,1682351382
167,letlhakane,-21.4167,25.5833,27.06,21,4,1.27,BW,1682351382
168,kurumkan,54.3,110.3,-3.42,46,76,1.13,RU,1682351383
169,puerto real,36.5282,-6.1901,32.07,50,0,6.69,ES,1682351383
170,beitbridge,-22.2167,30.0,26.74,41,2,5.03,ZW,1682351383
171,palmer,42.1584,-72.3287,13.61,68,100,3.09,US,1682351383
172,bredasdorp,-34.5322,20.0403,18.16,76,7,6.0,ZA,1682351383
173,happy valley-goose bay,53.3168,-60.3315,9.17,57,20,2.06,CA,1682351093
174,tres palos,18.1833,-101.6167,29.33,45,100,1.66,MX,1682351383
175,iwanai,42.9744,140.5089,4.75,80,37,3.26,JP,1682351383
176,milas,37.3164,27.7839,18.64,59,20,7.2,TR,1682351383
177,mutoko,-17.397,32.2268,20.77,43,91,3.74,ZW,1682351384
178,port alfred,-33.5906,26.891,21.21,90,100,1.79,ZA,1682351384
179,nar'yan-mar,67.6713,53.087,-4.69,88,61,3.89,RU,1682351384
180,pindushi,62.9152,34.58,8.68,86,78,3.89,RU,1682351384
181,longyearbyen,78.2186,15.6401,-5.09,63,0,2.06,SJ,1682351384
182,saldanha,-33.0117,17.9442,17.18,91,52,2.19,ZA,1682351385
183,kiunga,-6.1219,141.2906,22.32,99,100,0.31,PG,1682351385
184,callao,-12.0667,-77.15,26.16,61,0,7.2,PE,1682351385
185,talnakh,69.4865,88.3972,1.23,80,43,3.93,RU,1682351385
186,ust-nera,64.5667,143.2,-11.55,97,86,2.91,RU,1682351385
187,tarakan,3.3,117.6333,28.28,75,30,3.19,ID,1682351385
188,cambria,35.5641,-121.0808,16.45,59,29,2.09,US,1682351385
189,gazli,40.1333,63.45,26.26,14,100,10.67,UZ,1682351385
190,kirkwall,58.9848,-2.9587,5.03,70,40,9.26,GB,1682351386
191,al quwayrah,29.8004,35.3116,26.0,29,0,6.76,JO,1682351386
192,dudinka,69.4058,86.1778,1.46,76,88,8.05,RU,1682351336
193,tadine,-21.55,167.8833,23.91,83,89,4.73,NC,1682351386
194,cova figueira,14.8905,-24.2934,21.87,68,3,9.78,CV,1682351386
195,san julian,21.0167,-102.1667,23.89,15,30,5.33,MX,1682351386
196,inhambane,-23.865,35.3833,26.99,65,20,3.13,MZ,1682351387
197,ust'-kut,56.7938,105.7672,-3.44,95,100,1.24,RU,1682351387
198,udachny,66.4167,112.4,-12.85,100,28,1.32,RU,1682351387
199,katsuura,35.1333,140.3,12.25,63,100,4.63,JP,1682351387
200,castillos,-34.1667,-53.8333,23.79,61,59,3.82,UY,1682351387
201,taiynsha,53.8478,69.7639,8.97,45,90,2.55,KZ,1682351387
202,peniche,39.3558,-9.3811,23.93,71,62,5.9,PT,1682351387
203,ciudad sabinas hidalgo,26.5,-100.1667,15.81,77,100,1.12,MX,1682351387
204,umluj,25.0213,37.2685,26.58,61,0,4.15,SA,1682351388
205,olinda,-8.0089,-34.8553,28.85,70,75,5.66,BR,1682351271
206,saint-francois,46.4154,3.9054,14.69,56,75,4.63,FR,1682351300
207,thunder bay,48.4001,-89.3168,0.99,60,75,3.6,CA,1682351374
208,severo-yeniseyskiy,60.3725,93.0408,0.76,94,100,1.78,RU,1682351388
209,port sudan,19.6175,37.2164,30.48,57,89,3.61,SD,1682351388
210,sault ste. marie,46.5168,-84.3333,2.31,100,100,4.12,CA,1682351108
211,holualoa,19.6228,-155.9522,19.91,77,0,3.09,US,1682351388
212,broken hill,-31.95,141.4333,18.46,52,0,4.74,AU,1682351388
213,puerto deseado,-47.7503,-65.8938,19.23,32,0,10.2,AR,1682351388
214,changzhi,35.2089,111.7386,6.35,95,100,1.11,CN,1682351388
215,cidreira,-30.1811,-50.2056,23.36,72,34,7.12,BR,1682351389
216,illapel,-31.6308,-71.1653,24.76,38,20,2.82,CL,1682351389
217,macheng,31.1783,115.0319,10.25,91,100,1.59,CN,1682351389
218,santiago del torno,-17.9833,-63.3833,27.42,62,90,2.09,BO,1682351389
219,san patricio,28.017,-97.5169,18.92,82,100,5.13,US,1682351389
220,lubango,-14.9172,13.4925,21.47,77,79,1.64,AO,1682351389
221,cidade velha,14.9167,-23.6167,28.26,51,20,9.26,CV,1682351389
222,tobruk,32.0836,23.9764,18.86,70,2,9.38,LY,1682351389
223,punta del este,-34.9667,-54.95,24.42,83,40,3.58,UY,1682351389
224,naryn,41.4287,75.9911,13.35,31,100,2.55,KG,1682351389
225,tura,25.5198,90.2201,23.39,47,7,1.71,IN,1682351390
226,yabelo,4.8833,38.0833,17.68,76,88,4.36,ET,1682351390
227,oliver,49.1831,-119.5524,8.95,76,78,0.51,CA,1682351390
228,el bosque,17.0667,-92.7333,25.59,34,45,1.11,MX,1682351390
229,turochak,52.2576,87.1224,4.79,97,99,1.35,RU,1682351390
230,namibe,-15.1961,12.1522,25.35,69,65,6.15,AO,1682351390
231,limon,10.0,-83.0333,30.59,70,20,3.6,CR,1682351272
232,lensk,60.7253,114.9278,-5.64,97,34,1.46,RU,1682351391
233,martil,35.6166,-5.2752,23.98,60,0,3.6,MA,1682351391
234,abu road,24.4833,72.7833,28.7,15,100,1.89,IN,1682351155
235,obihiro,42.9172,143.2044,2.93,55,1,3.25,JP,1682351391
236,podporozh'ye,60.9112,34.1706,14.55,58,38,3.44,RU,1682351391
237,nacala,-14.5428,40.6728,27.62,74,20,4.12,MZ,1682351391
238,phetchaburi,12.9667,99.5833,25.86,70,82,1.46,TH,1682351391
239,tazovsky,67.4667,78.7,-0.87,97,100,4.98,RU,1682351324
240,san rafael,-34.6177,-68.3301,22.1,35,0,2.95,AR,1682351392
241,sylacauga,33.1732,-86.2516,15.66,41,40,3.6,US,1682351162
242,georgetown,5.4112,100.3354,26.96,89,40,2.06,MY,1682351100
243,nizhneangarsk,55.7833,109.55,-8.24,83,100,1.22,RU,1682351392
244,buala,-8.145,159.5921,26.35,84,100,1.23,SB,1682351392
245,dunhua,43.3725,128.2425,4.04,31,99,2.99,CN,1682351392
246,filey,54.21,-0.2892,7.82,78,100,0.45,GB,1682351392
247,santa ana,33.7456,-117.8678,16.4,84,100,2.06,US,1682351109
248,balcarce,-37.8462,-58.2552,20.22,46,0,3.27,AR,1682351392
249,nadym,65.5333,72.5167,-3.7,89,100,12.69,RU,1682351392
250,douentza,14.9951,-2.9517,39.88,8,1,4.43,ML,1682351393
251,louga,58.7372,29.8453,18.49,41,10,3.5,RU,1682351393
252,hammerfest,70.6634,23.6821,-0.75,80,40,2.06,NO,1682351393
253,yuzhno-kurilsk,44.0306,145.8556,3.31,74,36,5.96,RU,1682351393
254,bush,29.1482,31.1273,29.5,17,0,4.3,EG,1682351393
255,kankaanpaa,61.8,22.4167,1.42,71,99,0.92,FI,1682351393
256,mirny,62.5353,113.9611,-14.42,98,21,0.53,RU,1682351393
257,al jawf,29.5,38.75,26.39,26,22,4.12,SA,1682351393
258,eaton,42.6,-84.85,6.06,48,77,3.73,US,1682351394
259,usman',52.0466,39.7288,14.02,72,82,2.55,RU,1682351394
260,bundaberg north,-24.8551,152.3425,17.9,96,45,0.89,AU,1682351394
261,hamilton,39.1834,-84.5333,8.29,56,100,2.57,US,1682351342
262,lorengau,-2.0226,147.2712,27.2,83,64,3.23,PG,1682351394
263,murashi,59.3999,48.9615,12.4,58,39,2.97,RU,1682351394
264,chos malal,-37.3781,-70.2709,22.55,22,0,1.53,AR,1682351394
265,carloforte,39.145,8.3058,16.86,71,51,6.23,IT,1682351394
266,galle,6.0367,80.217,27.74,79,75,1.85,LK,1682351395
267,grand baie,-20.0182,57.5802,26.92,79,64,0.89,MU,1682351395
268,dryden,49.7833,-92.7503,1.16,55,0,2.57,CA,1682351395
269,mauranwan,26.4333,80.8833,21.02,40,77,3.77,IN,1682351395
270,aswan,24.0934,32.907,37.61,11,0,7.2,EG,1682351395
271,xifeng,42.7372,124.7222,9.57,19,100,3.25,CN,1682351395
272,pozarevac,44.6153,21.1825,15.98,80,100,3.83,RS,1682351395
273,kvissleby,62.2936,17.375,1.91,82,100,3.49,SE,1682351395
274,tyre,33.2733,35.1939,23.75,67,0,2.35,LB,1682351397
275,arraial do cabo,-22.9661,-42.0278,25.98,57,75,3.09,BR,1682351397
276,gaspe,48.8334,-64.4819,2.12,87,100,4.63,CA,1682351104
277,aldinga beach,-35.2793,138.4604,21.15,58,8,3.02,AU,1682351397
278,firmat,-33.4594,-61.4832,23.21,46,100,2.63,AR,1682351397
279,kwakoa,-3.7667,37.7167,24.89,74,95,2.44,TZ,1682351397
280,college,64.8569,-147.8028,-11.82,57,75,5.14,US,1682351398
281,pervomayskoye,43.919,46.7102,14.98,70,81,2.64,RU,1682351398
282,naberera,-4.2,36.9333,19.18,86,67,3.03,TZ,1682351398
283,brookings,44.3114,-96.7984,7.19,60,0,5.66,US,1682351142
284,victoria,22.2855,114.1577,24.1,90,68,4.02,HK,1682351233
285,nyurba,63.2842,118.3319,-10.71,97,63,1.96,RU,1682351398
286,fale old settlement,-9.3852,-171.2468,27.91,75,18,2.05,TK,1682351398
287,sao vicente,-23.9631,-46.3919,29.1,50,0,3.13,BR,1682351398
288,santa eularia des riu,38.9846,1.5341,20.95,76,0,3.09,ES,1682351399
289,taunggyi,20.7833,97.0333,19.92,45,3,0.94,MM,1682351399
290,thenia,36.7254,3.5567,22.16,49,27,2.95,DZ,1682351399
291,angaur state,6.906,134.13,28.38,73,78,2.8,PW,1682351399
292,midoun,33.8081,10.9923,29.92,48,0,5.51,TN,1682351399
293,mecca,21.4267,39.8261,31.3,46,33,6.58,SA,1682351399
294,banska stiavnica,48.4486,18.91,9.71,94,100,1.43,SK,1682351399
295,iskateley,67.6803,53.1512,-4.71,88,60,3.93,RU,1682351399
296,kerikeri,-35.2268,173.9474,8.84,90,8,1.52,NZ,1682351189
297,lagos,6.5833,3.75,33.18,60,100,2.33,NG,1682351394
298,queenstown,-31.8976,26.8753,20.86,35,100,2.91,ZA,1682351399
299,intendente alvear,-35.2338,-63.592,23.22,39,99,3.47,AR,1682351399
300,hadibu,12.65,54.0333,28.76,68,41,0.23,YE,1682351400
301,verkhnevilyuysk,63.4453,120.3167,-5.07,92,99,3.62,RU,1682351400
302,shiprock,36.7855,-108.687,10.19,42,83,3.05,US,1682351400
303,oppdal,62.5943,9.6912,-0.98,94,100,3.11,NO,1682351400
304,byron bay,-28.65,153.6167,17.06,66,65,5.96,AU,1682351400
305,nidzica,53.3605,20.4275,19.77,77,100,2.21,PL,1682351401
306,colonia,50.9333,6.95,13.31,61,40,7.72,DE,1682351171
307,sisimiut,66.9395,-53.6735,1.58,94,100,1.61,GL,1682351401
308,san antonio de pale,-1.4014,5.6325,28.28,72,80,1.83,GQ,1682351401
309,baikonur,45.6167,63.3167,18.79,29,0,5.31,KZ,1682351401
310,gadzhiyevo,69.2551,33.3362,-1.75,73,27,4.59,RU,1682351401
311,salalah,17.0151,54.0924,30.05,70,20,5.14,OM,1682351402
312,staunton,38.1496,-79.0717,11.21,46,40,3.09,US,1682351402
313,lumding railway colony,25.749,93.17,20.96,71,0,0.57,IN,1682351403
314,praia da vitoria,38.7333,-27.0667,22.14,64,20,6.77,PT,1682351403
315,khandyga,62.6667,135.6,-5.27,96,100,0.76,RU,1682351403
316,mata-utu,-13.2816,-176.1745,27.38,75,100,1.8,WF,1682351404
317,vadso,70.0744,29.7487,1.09,64,20,5.14,NO,1682351404
318,tralee,52.2704,-9.7026,11.14,54,0,5.14,IE,1682351406
319,coronado,32.6859,-117.1831,16.02,80,100,3.09,US,1682351406
320,ancud,-41.8697,-73.8203,12.82,79,10,5.4,CL,1682351406
321,kapa'a,22.0752,-159.319,20.99,94,0,1.54,US,1682351406
322,uturoa,-16.7333,-151.4333,26.87,80,79,4.82,PF,1682351407
323,sinabang,2.4803,96.3801,27.91,80,98,0.91,ID,1682351407
324,leninskoye,41.7589,69.3864,15.78,62,5,3.31,KZ,1682351408
325,vilyuchinsk,52.9306,158.4028,0.15,84,73,3.58,RU,1682351409
326,broome,42.2506,-75.833,9.74,60,75,3.09,US,1682351409
327,beira,-19.8436,34.8389,22.05,100,0,3.6,MZ,1682351410
328,fiambala,-27.6871,-67.6149,16.55,51,11,0.55,AR,1682351410
329,turkmenbasy,40.0222,52.9552,23.43,38,0,4.12,TM,1682351411
330,sao joao da barra,-21.6403,-41.0511,27.05,65,8,4.25,BR,1682351411
331,weno,7.4515,151.8468,25.97,100,100,0.0,FM,1682351412
332,akureyri,65.6835,-18.0878,1.96,55,40,7.72,IS,1682351412
333,maitum,6.0392,124.4986,25.86,88,100,1.48,PH,1682351412
334,kapoeta,4.7717,33.5903,30.59,42,84,2.17,SS,1682351412
335,taybad,34.74,60.7756,25.56,18,100,4.32,IR,1682351413
336,riti,7.9167,9.6167,35.8,38,98,1.25,NG,1682351413
337,sinop,41.7711,34.8709,8.24,92,95,0.41,TR,1682351413
338,pierre,44.3683,-100.351,9.6,41,0,4.92,US,1682351413
339,twante,16.7167,95.9333,30.07,60,5,4.34,MM,1682351413
340,caarapo,-22.6342,-54.8222,23.64,68,72,4.63,BR,1682351414
341,mbanza-ngungu,-5.25,14.8667,24.53,86,97,1.79,CD,1682351414
342,gao,16.6362,1.637,39.64,8,2,7.57,ML,1682351414
343,sao geraldo do araguaia,-6.4006,-48.555,29.32,63,100,1.55,BR,1682351414
344,belyy yar,53.6039,91.3903,10.94,32,98,2.0,RU,1682351415
345,thanatpin,17.2119,96.3033,30.1,50,6,4.67,MM,1682351415
346,bapatla,15.9,80.4667,28.93,78,8,5.23,IN,1682351415
347,eilat,29.5581,34.9482,30.91,13,0,6.17,IL,1682351415
348,hailey,43.5196,-114.3153,5.92,74,40,2.68,US,1682351416
349,troitskoye,52.9821,84.6757,8.81,87,51,4.97,RU,1682351416
350,grants,35.1473,-107.8514,13.13,26,75,4.12,US,1682351417
351,gornopravdinsk,60.05,69.9,-2.93,81,23,1.9,RU,1682351418
352,al burayqah,30.4062,19.5739,19.49,77,74,8.51,LY,1682351418
353,la'ie,21.6477,-157.9253,22.98,86,29,0.32,US,1682351418
354,opuwo,-18.0607,13.84,30.33,29,29,2.91,NA,1682351419
355,umba,66.6871,34.3429,-0.36,76,97,1.86,RU,1682351419
356,el calafate,-50.3408,-72.2768,12.6,70,86,1.36,AR,1682351420
357,sao gabriel da cachoeira,-0.1303,-67.0892,23.89,94,100,1.03,BR,1682351421
358,sao paulo de olivenca,-3.3783,-68.8725,22.69,99,100,1.64,BR,1682351422
359,sidi bel abbes,35.1899,-0.6309,22.5,33,2,7.02,DZ,1682351422
360,chanika,-5.4167,38.0167,21.77,95,51,2.01,TZ,1682351423
361,al kharijah,25.4514,30.5464,33.39,12,53,6.54,EG,1682351423
362,rouissat,31.9243,5.3502,31.78,14,56,1.6,DZ,1682351423
363,chibougamau,49.9168,-74.3659,3.79,93,100,4.12,CA,1682351241
364,pathein,16.7833,94.7333,28.2,78,2,3.41,MM,1682351424
365,lompoc,34.6391,-120.4579,14.88,100,100,6.17,US,1682351424
366,santa helena,-2.2311,-45.3,33.97,41,89,2.26,BR,1682351424
367,northam,51.0333,-4.2167,10.9,86,53,6.06,GB,1682351425
368,giddings,30.1827,-96.9364,15.24,76,100,0.0,US,1682351425
369,oranjemund,-28.55,16.4333,17.28,94,20,4.35,NA,1682351398
370,hobyo,5.3505,48.5268,29.33,71,25,5.28,SO,1682351426
371,burton upon trent,52.8073,-1.6426,10.6,62,95,5.62,GB,1682351181
372,hagere selam,6.4833,38.5167,10.84,93,88,2.48,ET,1682351427
373,borogontsy,62.6683,131.1683,-4.87,94,100,2.33,RU,1682351427
374,barra do corda,-5.5,-45.25,30.65,52,100,2.88,BR,1682351427
375,mar del plata,-38.0023,-57.5575,19.41,83,75,3.6,AR,1682351253
376,jayapura,-2.5333,140.7,25.66,89,96,1.49,ID,1682351427
377,quellon,-43.1167,-73.6167,11.14,87,75,5.14,CL,1682351428
378,natal,-5.795,-35.2094,32.36,58,40,6.69,BR,1682351287
379,murun-kuren,49.6342,100.1625,3.89,23,99,1.35,MN,1682351428
380,deming,32.2687,-107.7586,13.94,41,0,2.57,US,1682351428
381,anzio,41.4853,12.6179,21.1,78,14,3.25,IT,1682351415
382,gusinoozyorsk,51.2833,106.5,-1.49,57,0,1.18,RU,1682351429
383,tenenkou,14.4572,-4.9169,40.23,8,2,1.0,ML,1682351429
384,conduaga,8.862,117.4893,26.72,85,59,2.66,PH,1682351430
385,susuman,62.7833,148.1667,-14.05,98,77,2.47,RU,1682351430
386,wewak,-3.5534,143.6268,26.85,84,100,1.14,PG,1682351430
387,serra,-20.1286,-40.3078,26.92,65,75,3.09,BR,1682351421
388,kunashak,55.7032,61.5498,17.29,36,92,2.35,RU,1682351431
389,obo,5.3998,26.4869,30.37,38,86,1.47,CF,1682351431
390,balikpapan,-1.2675,116.8289,26.55,89,40,0.0,ID,1682351431
391,basco,20.4487,121.9702,25.07,77,31,6.93,PH,1682351431
392,tomatlan,19.9333,-105.25,29.94,36,13,2.04,MX,1682351431
393,ginir,7.1333,40.7,16.78,81,36,0.67,ET,1682351432
394,collie,-33.3667,116.15,7.44,96,29,1.52,AU,1682351432
395,francistown,-21.17,27.5079,27.15,26,4,4.16,BW,1682351432
396,fort st. john,56.2499,-120.8529,1.94,75,100,4.63,CA,1682351433
397,sos'va,59.1766,61.8558,6.63,74,99,1.88,RU,1682351433
398,cradock,-32.1642,25.6192,22.4,34,100,1.53,ZA,1682351434
399,chystyakove,48.0388,38.5969,10.75,90,100,4.4,UA,1682351434
400,soio,-6.1349,12.3689,27.83,81,39,5.13,AO,1682351434
401,kruisfontein,-34.0033,24.7314,19.94,95,100,3.89,ZA,1682351435
402,hue,16.4667,107.6,26.06,89,40,1.54,VN,1682351435
403,belogorsk,50.9158,128.4611,1.65,68,100,2.85,RU,1682351436
404,newman,37.3138,-121.0208,16.7,72,51,2.24,US,1682351436
405,slave lake,55.2834,-114.769,5.99,61,100,3.6,CA,1682351436
406,greenville,35.6127,-77.3663,14.01,56,100,5.14,US,1682351433
407,cole harbour,44.6724,-63.4751,11.77,72,75,6.69,CA,1682351438
408,tofol,5.3248,163.0078,24.52,91,100,3.31,FM,1682351438
409,luderitz,-26.6481,15.1594,18.45,82,5,5.29,NA,1682351438
410,aykhal,66.0,111.5,-12.28,94,8,1.33,RU,1682351438
411,saint-pierre,-21.3393,55.4781,27.82,74,100,2.57,RE,1682351439
412,maues,-3.3836,-57.7186,32.96,49,53,2.03,BR,1682351439
413,taoyuan city,24.9937,121.297,19.49,90,75,6.17,TW,1682351439
414,ceerigaabo,10.6162,47.368,20.53,64,76,2.7,SO,1682351439
415,akrehamn,59.2667,5.1833,8.45,70,75,12.35,NO,1682351439
416,voss,60.623,6.4229,7.52,95,100,0.81,NO,1682351439
417,namtsy,62.7161,129.6658,-3.58,92,100,4.64,RU,1682351439
418,qiancheng,27.185,109.7654,8.46,96,100,1.21,CN,1682351440
419,ponta delgada,37.7333,-25.6667,18.4,94,75,3.6,PT,1682351440
420,nova sintra,14.8667,-24.7167,20.02,74,1,9.82,CV,1682351440
421,shiyan,32.6475,110.7781,7.32,93,100,1.14,CN,1682351440
422,faya-largeau,17.9257,19.1043,41.94,7,0,4.12,TD,1682351440
423,berezovyy,51.6667,135.7,-1.91,75,99,3.45,RU,1682351440
424,sena madureira,-9.0656,-68.6569,26.8,82,64,2.48,BR,1682351440
425,suva,-18.1416,178.4415,22.71,94,20,1.54,FJ,1682351440
426,pont-rouge,46.7566,-71.6978,6.64,97,100,4.48,CA,1682351441
427,gilau,46.7324,23.3617,12.25,72,100,0.32,RO,1682351441
428,pieksamaki,62.3,27.1333,6.16,83,100,2.81,FI,1682351441
429,dali,25.7,100.1833,13.61,56,20,2.75,CN,1682351441
430,i-n-salah,27.1935,2.4607,34.26,8,21,6.6,DZ,1682351441
431,rakops,-21.0167,24.3333,29.29,21,4,2.74,BW,1682351442
432,tabas,33.5959,56.9244,28.85,20,90,4.03,IR,1682351442
433,inongo,-1.95,18.2667,25.85,73,79,1.06,CD,1682351443
434,morehead city,34.7229,-76.726,18.32,81,100,4.12,US,1682351284
435,kawalu,-7.3817,108.2082,22.75,98,99,1.15,ID,1682351443
436,geraldton,-28.7667,114.6,17.23,59,100,4.63,AU,1682351443
437,cadale,2.7603,46.3222,28.97,73,100,4.16,SO,1682351443
438,mana,5.6592,-53.7767,24.77,90,100,4.39,GF,1682351444
439,balsas,-7.5325,-46.0356,31.84,44,85,3.33,BR,1682351444
440,hami,42.8,93.45,15.42,16,5,0.71,CN,1682351444
441,al mijlad,11.0333,27.7333,36.54,26,99,4.35,SD,1682351445
442,haikou,20.0458,110.3417,24.07,94,40,4.0,CN,1682351445
443,al hufuf,25.3646,49.5653,35.19,20,40,6.17,SA,1682351445
444,major isidoro,-9.5322,-36.985,30.6,46,100,5.44,BR,1682351445
445,chester,40.1254,-75.8749,12.96,50,3,1.79,US,1682351445
446,nyagan,62.1406,65.3936,-6.58,92,15,2.28,RU,1682351445
447,tacuarembo,-31.7333,-55.9833,26.7,36,53,3.18,UY,1682351446
448,dipolog,8.5894,123.3414,26.79,83,54,2.74,PH,1682351446
449,road town,18.4167,-64.6167,29.05,61,40,2.57,VG,1682351417
450,port saint john's,-31.6229,29.5448,23.99,66,100,2.0,ZA,1682351446
451,tsiombe,-25.3,45.4833,21.21,82,40,2.61,MG,1682351446
452,panama city beach,30.1766,-85.8055,23.88,52,0,7.2,US,1682351446
453,kenai,60.5544,-151.2583,-1.59,79,0,0.0,US,1682351446
454,kili,5.6439,169.1211,28.08,80,100,7.12,MH,1682351446
455,vila velha,-20.3297,-40.2925,27.19,70,75,3.09,BR,1682351446
456,new norfolk,-42.7826,147.0587,12.06,78,25,1.73,AU,1682351447
457,touros,-5.1989,-35.4608,30.24,63,57,7.18,BR,1682351447
458,el hadjira,32.6134,5.5126,31.86,15,88,2.54,DZ,1682351447
459,taksimo,56.3444,114.8794,-5.41,63,90,1.59,RU,1682351447
460,xichang,27.8964,102.2634,14.25,66,19,3.27,CN,1682351447
461,qashyr,53.0675,76.1036,8.52,31,80,8.26,KZ,1682351447
462,peace river,56.2501,-117.286,6.17,88,100,6.17,CA,1682351447
463,nadi,-17.8,177.4167,23.0,94,20,2.57,FJ,1682351447
464,east london,-33.0153,27.9116,23.52,68,0,2.06,ZA,1682351447
465,aktau,43.65,51.2,24.32,26,63,11.65,KZ,1682351448
466,salinopolis,-0.6136,-47.3561,28.33,72,94,3.54,BR,1682351448
467,huskvarna,57.786,14.3021,14.0,54,20,4.12,SE,1682351448
468,calama,-22.4667,-68.9333,17.27,29,0,2.57,CL,1682351448
469,chul'man,56.8479,124.9104,-10.88,97,100,1.49,RU,1682351448
470,shingu,33.7333,135.9833,10.07,89,100,3.01,JP,1682351448
471,keflavik,64.0049,-22.5624,7.95,65,75,3.6,IS,1682351448
472,dubbo,-32.25,148.6167,15.07,82,0,5.14,AU,1682351448
473,laguna,38.421,-121.4238,19.45,66,0,2.06,US,1682351449
474,pasni,25.2631,63.471,26.99,82,100,3.13,PK,1682351449
475,solnechnyy,50.7214,136.6319,-1.07,64,32,3.79,RU,1682351449
476,thames,-37.1333,175.5333,6.59,74,0,1.24,NZ,1682351449
477,qianjiang,30.4151,112.8859,8.85,92,100,5.23,CN,1682351449
478,moyale,3.5167,39.0584,22.19,80,97,3.66,KE,1682351449
479,taro,-8.3862,115.28,24.0,95,81,0.56,ID,1682351449
480,scone,56.4194,-3.4051,9.38,51,100,1.34,GB,1682351449
481,zouerate,22.7187,-12.4521,32.41,13,0,1.41,MR,1682351449
482,hungerford,51.4151,-1.5156,9.1,95,100,5.04,GB,1682351449
483,douglas,41.3,-96.167,12.36,51,40,2.06,US,1682351450
484,ribeira brava,32.65,-17.0667,23.17,69,100,1.25,PT,1682351450
485,kasongo-lunda,-6.4667,16.8167,25.47,83,87,0.59,CD,1682351450
486,lhokseumawe,5.1801,97.1507,25.96,80,100,2.22,ID,1682351450
487,minot air force base,48.4209,-101.3391,6.23,63,0,4.12,US,1682351450
488,bangassou,4.7413,22.8184,26.19,67,97,1.65,CF,1682351450
489,fort mcmurray,56.7268,-111.381,5.73,70,100,2.57,CA,1682351450
490,kourou,5.1552,-52.6478,28.03,87,100,2.19,GF,1682351450
491,kokopo,-4.352,152.2633,25.13,87,80,2.0,PG,1682351451
492,suntar,62.1444,117.6319,-12.82,100,42,0.16,RU,1682351451
493,qusmuryn,52.4503,64.6311,14.23,40,32,1.76,KZ,1682351451
494,ravar,31.2656,56.8055,21.46,37,99,8.42,IR,1682351451
495,torpoint,50.3751,-4.1957,13.65,72,12,3.58,GB,1682351451
496,lebu,-37.6167,-73.65,15.02,68,1,2.18,CL,1682351451
497,astrakhan,46.3497,48.0408,18.93,52,0,6.0,RU,1682351451
498,chernyshevsk,52.5243,117.0174,-4.29,70,8,2.22,RU,1682351451
499,guardo,42.7897,-4.8482,17.58,50,86,4.33,ES,1682351452
500,tateyama,34.9833,139.8667,13.17,63,100,5.01,JP,1682351452
501,kardla,58.9978,22.7492,7.81,87,100,4.12,EE,1682351452
502,shahrak,34.1074,64.3052,14.72,33,99,1.92,AF,1682351452
503,hilo,19.7297,-155.09,25.16,91,75,1.34,US,1682351452
504,labrador city,52.9463,-66.9114,5.95,56,0,3.6,CA,1682351409
505,poplar bluff,36.757,-90.3929,13.85,51,0,1.54,US,1682351452
506,caxito,-8.5785,13.6643,28.29,82,80,3.14,AO,1682351452
507,margate,51.3813,1.3862,11.5,66,100,1.34,GB,1682351452
508,waingapu,-9.6567,120.2641,25.73,86,16,3.74,ID,1682351452
509,qarqaraly,49.4058,75.4742,6.03,77,71,4.73,KZ,1682351452
510,fonte boa,-2.4959,-66.2662,27.15,92,89,1.85,BR,1682351453
511,chegdomyn,51.1167,133.0167,-4.83,81,18,1.63,RU,1682351453
512,urangan,-25.3,152.9,23.09,65,26,8.64,AU,1682351453
513,urengoy,65.9667,78.3667,-5.58,92,100,5.62,RU,1682351453
514,arafat,21.3594,39.9664,31.3,47,50,6.28,SA,1682351453
515,sedalia,38.7045,-93.2283,14.3,35,0,4.63,US,1682351453
516,preobrazheniye,42.9019,133.9064,3.01,61,27,4.07,RU,1682351453
517,st. john's,47.5649,-52.7093,4.88,95,100,10.28,CA,1682351328
518,quepos,9.4236,-84.1652,29.9,64,16,2.45,CR,1682351454
519,aruja,-23.3961,-46.3208,25.42,53,0,4.12,BR,1682351293
520,grenada,37.1882,-3.6067,29.39,17,20,4.12,ES,1682351436
521,benghazi,32.1167,20.0667,19.45,71,0,8.6,LY,1682351454
522,vikulovo,56.8167,70.6107,2.96,49,69,3.0,RU,1682351454
523,karatuzskoye,53.6072,92.8667,6.99,63,98,2.55,RU,1682351454
524,bodo,67.28,14.405,4.02,48,32,2.06,NO,1682351454
525,ishikawa,26.4233,127.8214,22.98,78,100,2.06,JP,1682351454
526,williams lake,52.1415,-122.1445,7.81,83,75,1.54,CA,1682351454
527,akwanga,8.9167,8.3833,31.08,43,100,1.92,NG,1682351454
528,puerto colombia,10.9878,-74.9547,30.05,72,68,5.04,CO,1682351454
529,minas de marcona,-15.2119,-75.1103,22.07,59,2,6.52,PE,1682351454
530,laojunmiao,39.8333,97.7333,6.37,31,0,1.53,CN,1682351454
531,menaka,15.9182,2.4022,40.78,8,9,3.95,ML,1682351455
532,ke-macina,13.9623,-5.3572,39.98,8,3,1.26,ML,1682351455
533,kochenevo,55.0218,82.202,7.66,80,100,8.07,RU,1682351455
534,constitucion,-35.3333,-72.4167,16.08,72,47,3.23,CL,1682351455
535,macapa,0.0389,-51.0664,29.99,79,40,4.12,BR,1682351254
536,deori khas,23.4,79.0167,29.35,17,95,4.29,IN,1682351455
537,xiongzhou,25.1167,114.3,15.29,93,100,1.76,CN,1682351455
538,santa vitoria do palmar,-33.5189,-53.3681,24.66,59,44,3.72,BR,1682351455
539,zhangye,38.9342,100.4517,9.55,36,20,1.39,CN,1682351455
540,crucecita,-28.95,-58.9833,22.31,52,100,3.7,AR,1682351456
541,nueva gerona,21.8833,-82.8,29.98,51,72,3.95,CU,1682351456
542,wynyard,-41.0,145.7167,10.54,93,3,2.21,AU,1682351456
543,maragogi,-9.0122,-35.2225,27.89,73,100,5.48,BR,1682351234
544,puerto baquerizo moreno,-0.9,-89.6,27.55,78,40,2.06,EC,1682351456
545,lingcheng,22.7072,110.3492,19.31,92,100,2.6,CN,1682351456
546,coahuayana de hidalgo,18.7,-103.6583,29.26,56,84,1.84,MX,1682351456
547,pandan,14.0453,124.1694,25.94,80,11,3.68,PH,1682351456
548,ansalta,42.6894,46.1178,13.23,77,60,1.74,RU,1682351456
549,chingirlau,51.095,54.0814,14.66,44,88,3.07,KZ,1682351456
550,zaozersk,69.4005,32.4476,-2.94,77,30,3.23,RU,1682351457
551,arkhangel'sk,64.5401,40.5433,1.06,100,75,3.0,RU,1682351457
552,likiep,9.8251,169.3107,27.3,82,100,9.1,MH,1682351457
553,whitby,54.4877,-0.615,8.51,76,100,4.92,GB,1682351457
554,koszalin,54.1944,16.1722,11.49,85,100,1.44,PL,1682351457
555,paita,-5.0892,-81.1144,26.14,77,100,2.32,PE,1682351457
556,cuito,-12.3833,16.9333,20.95,75,82,1.62,AO,1682351457
557,mount pearl,47.5166,-52.7813,4.42,95,100,8.75,CA,1682351457
558,bayanhongor,46.7167,100.1167,-2.96,49,35,2.2,MN,1682351457
559,buba,11.5833,-15.0,40.6,21,53,4.87,GW,1682351457
560,lerwick,60.1545,-1.1494,5.0,61,100,10.62,GB,1682351458
561,turbat,26.0023,63.044,28.81,56,98,5.17,PK,1682351458
562,acarau,-2.8856,-40.12,29.82,64,44,4.5,BR,1682351287
